[
  {
    "id": "demo_1969_moon_landing",
    "title": "Apollo 11 Moon Landing",
    "date": "1969-07-20",
    "location": {
      "latitude": 28.6139,
      "longitude": -80.6081,
      "name": "Kennedy Space Center, Florida"
    },
    "description": "Neil Armstrong and Buzz Aldrin became the first humans to land on the Moon during the Apollo 11 mission.",
    "category": "Science",
    "images": [],
    "wikipediaUrl": "https://en.wikipedia.org/wiki/Apollo_11",
    "sources": ["Demo Data"],
    "verified": true
  },
  {
    "id": "demo_1969_woodstock",
    "title": "Woodstock Festival",
    "date": "1969-08-15",
    "location": {
      "latitude": 41.7014,
      "longitude": -74.3444,
      "name": "Bethel, New York"
    },
    "description": "The iconic music festival that became a symbol of the 1960s counterculture movement.",
    "category": "Cultural",
    "images": [],
    "wikipediaUrl": "https://en.wikipedia.org/wiki/Woodstock",
    "sources": ["Demo Data"],
    "verified": true
  },
  {
    "id": "demo_1969_internet",
    "title": "ARPANET First Message",
    "date": "1969-10-29",
    "location": {
      "latitude": 34.0522,
      "longitude": -118.2437,
      "name": "Los Angeles, California"
    },
    "description": "The first message sent over ARPANET, the precursor to the Internet.",
    "category": "Technology",
    "images": [],
    "wikipediaUrl": "https://en.wikipedia.org/wiki/ARPANET",
    "sources": ["Demo Data"],
    "verified": true
  },
  {
    "id": "demo_1989_berlin_wall",
    "title": "Fall of the Berlin Wall",
    "date": "1989-11-09",
    "location": {
      "latitude": 52.5163,
      "longitude": 13.3777,
      "name": "Berlin, Germany"
    },
    "description": "The Berlin Wall was torn down, marking the beginning of German reunification.",
    "category": "Political",
    "images": [],
    "wikipediaUrl": "https://en.wikipedia.org/wiki/Fall_of_the_Berlin_Wall",
    "sources": ["Demo Data"],
    "verified": true
  },
  {
    "id": "demo_1989_tiananmen",
    "title": "Tiananmen Square Protests",
    "date": "1989-06-04",
    "location": {
      "latitude": 39.9042,
      "longitude": 116.4074,
      "name": "Beijing, China"
    },
    "description": "Student-led demonstrations in Beijing's Tiananmen Square.",
    "category": "Political",
    "images": [],
    "wikipediaUrl": "https://en.wikipedia.org/wiki/1989_Tiananmen_Square_protests",
    "sources": ["Demo Data"],
    "verified": true
  }
]